{
"type": "FeatureCollection",
"name": "Police_Station_Locations",
"crs": { "type": "name", "properties": { "name": "urn:ogc:def:crs:OGC:1.3:CRS84" } },
"features": [
{ "type": "Feature", "properties": { "NAME": "WSP District 2 Seattle North Detachment", "ADDRESS": "811 E Roanoke", "ZIPCODE": "98102", "PHONE": "(206) 720-3040", "WEBSITE": "http://www.wsp.wa.gov/traveler/d2detach.htm" }, "geometry": { "type": "Point", "coordinates": [ -122.321530494382841, 47.642977215193156 ] } },
{ "type": "Feature", "properties": { "NAME": "KC Airport Law Enforcement", "ADDRESS": "7277 Perimeter Rd S", "ZIPCODE": "98108", "PHONE": "(206) 296-7392", "WEBSITE": "http://www.kingcounty.gov/depts/sheriff/police-partnerships/partners-list/kcia.aspx" }, "geometry": { "type": "Point", "coordinates": [ -122.304135536343011, 47.537378552947366 ] } },
{ "type": "Feature", "properties": { "NAME": "Metro Transit Police Unit", "ADDRESS": "1301 Airport Way S", "ZIPCODE": "98104", "PHONE": "(206) 477-0900", "WEBSITE": "http://kingcounty.gov/depts/transportation/metro/about/safety-security/transit-police.aspx" }, "geometry": { "type": "Point", "coordinates": [ -122.322801952961385, 47.589573595889902 ] } },
{ "type": "Feature", "properties": { "NAME": "Seattle Police East Precinct", "ADDRESS": "1519 12th Ave", "ZIPCODE": "98122", "PHONE": "(206) 684-4300", "WEBSITE": "http://www.seattle.gov/police/about-us/police-locations/east-precinct" }, "geometry": { "type": "Point", "coordinates": [ -122.317277707310978, 47.614919689257135 ] } },
{ "type": "Feature", "properties": { "NAME": "Seattle Police North Precinct", "ADDRESS": "10049 College Way N", "ZIPCODE": "98133", "PHONE": "(206) 684-0850", "WEBSITE": "http://www.seattle.gov/police/about-us/police-locations/north-precinct" }, "geometry": { "type": "Point", "coordinates": [ -122.334781076907774, 47.702936708500658 ] } },
{ "type": "Feature", "properties": { "NAME": "Seattle Police Southwest Precinct", "ADDRESS": "2300 SW Webster St", "ZIPCODE": "98106", "PHONE": "(206) 733-9800", "WEBSITE": "http://www.seattle.gov/police/about-us/police-locations/southwest-precinct" }, "geometry": { "type": "Point", "coordinates": [ -122.361898823346849, 47.535904160449036 ] } },
{ "type": "Feature", "properties": { "NAME": "Seattle Police West Precinct", "ADDRESS": "810 Virginia St", "ZIPCODE": "98121", "PHONE": "(206) 684-8917", "WEBSITE": "http://www.seattle.gov/police/about-us/police-locations/west-precinct" }, "geometry": { "type": "Point", "coordinates": [ -122.33656729421206, 47.616234654307512 ] } },
{ "type": "Feature", "properties": { "NAME": "Seattle Police South Precinct", "ADDRESS": "3001 S Myrtle St", "ZIPCODE": "98108", "PHONE": "(206) 386-1850", "WEBSITE": "http://www.seattle.gov/police/about-us/police-locations/south-precinct" }, "geometry": { "type": "Point", "coordinates": [ -122.293396667330256, 47.538586137377386 ] } },
{ "type": "Feature", "properties": { "NAME": "KC Patrol Operations Division", "ADDRESS": "516 3rd Ave", "ZIPCODE": "98104", "PHONE": "(206) 263-2550", "WEBSITE": "http://www.kingcounty.gov/depts/sheriff/about-us/enforcement/patrol.aspx", "PIN": "0942000860", "MAJOR": "094200", "MINOR": "0860" }, "geometry": { "type": "Point", "coordinates": [ -122.330510255637208, 47.602650876558627 ] } },
{ "type": "Feature", "properties": { "NAME": "Seattle Police Harbor Patrol Office", "ADDRESS": "1717 N Northlake Pl", "ZIPCODE": "98103", "PHONE": "(206) 684-4071", "WEBSITE": "http://www.seattle.gov/police/about-us/about-policing/harbor-patrol" }, "geometry": { "type": "Point", "coordinates": [ -122.337639935045132, 47.645691442002047 ] } },
{ "type": "Feature", "properties": { "NAME": "Seattle Police Headquarters", "ADDRESS": "610 5th Ave", "ZIPCODE": "98104", "PHONE": "(206) 625-5011", "WEBSITE": "http://www.seattle.gov/police/about-us/police-locations/police-hq" }, "geometry": { "type": "Point", "coordinates": [ -122.329188575551356, 47.604205656083423 ] } },
{ "type": "Feature", "properties": { "NAME": "UW Police Department", "ADDRESS": "3939 15th Ave NE", "ZIPCODE": "98105", "PHONE": "(206) 543-0507", "WEBSITE": "http://police.uw.edu/" }, "geometry": { "type": "Point", "coordinates": [ -122.316450581287015, 47.65233522688041 ] } }
]
}
