{
    "type": "FeatureCollection",
    "name": "Police_Station_Locations",
    "features": [
        {
            "type": "Feature",
            "properties": {
                "NAME": "WSP District 2 Seattle North Detachment",
                "ADDRESS": "811 E Roanoke",
                "ZIPCODE": "98102",
                "PHONE": "(206) 720-3040",
                "WEBSITE": "http://www.wsp.wa.gov"
            },
            "geometry": {
                "type": "Point",
                "coordinates": [
                    -122.32153049438284,
                    47.642977215193156
                ]
            }
        },
        {
            "type": "Feature",
            "properties": {
                "NAME": "KC Airport Law Enforcement",
                "ADDRESS": "7277 Perimeter Rd S",
                "ZIPCODE": "98108",
                "PHONE": "(206) 296-7392",
                "WEBSITE": "http://www.kingcounty.gov/depts/sheriff/police-partnerships/partners-list/kcia.aspx"
            },
            "geometry": {
                "type": "Point",
                "coordinates": [
                    -122.30413553634301,
                    47.53737855294737
                ]
            }
        },
        {
            "type": "Feature",
            "properties": {
                "NAME": "Metro Transit Police Unit",
                "ADDRESS": "1301 Airport Way S",
                "ZIPCODE": "98104",
                "PHONE": "(206) 477-0900",
                "WEBSITE": "https://kingcounty.gov/depts/transportation/metro/about/safety-security.aspx"
            },
            "geometry": {
                "type": "Point",
                "coordinates": [
                    -122.32280195296138,
                    47.5895735958899
                ]
            }
        },
        {
            "type": "Feature",
            "properties": {
                "NAME": "Seattle Police East Precinct",
                "ADDRESS": "1519 12th Ave",
                "ZIPCODE": "98122",
                "PHONE": "(206) 684-4300",
                "WEBSITE": "http://www.seattle.gov/police/about-us/police-locations/east-precinct"
            },
            "geometry": {
                "type": "Point",
                "coordinates": [
                    -122.31727770731098,
                    47.614919689257135
                ]
            }
        },
        {
            "type": "Feature",
            "properties": {
                "NAME": "Seattle Police North Precinct",
                "ADDRESS": "10049 College Way N",
                "ZIPCODE": "98133",
                "PHONE": "(206) 684-0850",
                "WEBSITE": "http://www.seattle.gov/police/about-us/police-locations/north-precinct"
            },
            "geometry": {
                "type": "Point",
                "coordinates": [
                    -122.33478107690777,
                    47.70293670850066
                ]
            }
        },
        {
            "type": "Feature",
            "properties": {
                "NAME": "Seattle Police Southwest Precinct",
                "ADDRESS": "2300 SW Webster St",
                "ZIPCODE": "98106",
                "PHONE": "(206) 733-9800",
                "WEBSITE": "http://www.seattle.gov/police/about-us/police-locations/southwest-precinct"
            },
            "geometry": {
                "type": "Point",
                "coordinates": [
                    -122.36189882334685,
                    47.535904160449036
                ]
            }
        },
        {
            "type": "Feature",
            "properties": {
                "NAME": "Seattle Police West Precinct",
                "ADDRESS": "810 Virginia St",
                "ZIPCODE": "98121",
                "PHONE": "(206) 684-8917",
                "WEBSITE": "http://www.seattle.gov/police/about-us/police-locations/west-precinct"
            },
            "geometry": {
                "type": "Point",
                "coordinates": [
                    -122.33656729421206,
                    47.61623465430751
                ]
            }
        },
        {
            "type": "Feature",
            "properties": {
                "NAME": "Seattle Police South Precinct",
                "ADDRESS": "3001 S Myrtle St",
                "ZIPCODE": "98108",
                "PHONE": "(206) 386-1850",
                "WEBSITE": "http://www.seattle.gov/police/about-us/police-locations/south-precinct"
            },
            "geometry": {
                "type": "Point",
                "coordinates": [
                    -122.29339666733026,
                    47.538586137377386
                ]
            }
        },
        {
            "type": "Feature",
            "properties": {
                "NAME": "KC Patrol Operations Division",
                "ADDRESS": "516 3rd Ave",
                "ZIPCODE": "98104",
                "PHONE": "(206) 263-2550",
                "WEBSITE": "http://www.kingcounty.gov/depts/sheriff/about-us/enforcement/patrol.aspx",
                "PIN": "0942000860",
                "MAJOR": "094200",
                "MINOR": "0860"
            },
            "geometry": {
                "type": "Point",
                "coordinates": [
                    -122.33051025563721,
                    47.60265087655863
                ]
            }
        },
        {
            "type": "Feature",
            "properties": {
                "NAME": "Seattle Police Harbor Patrol Office",
                "ADDRESS": "1717 N Northlake Pl",
                "ZIPCODE": "98103",
                "PHONE": "(206) 684-4071",
                "WEBSITE": "http://www.seattle.gov/police/about-us/about-policing/harbor-patrol"
            },
            "geometry": {
                "type": "Point",
                "coordinates": [
                    -122.33763993504513,
                    47.64569144200205
                ]
            }
        },
        {
            "type": "Feature",
            "properties": {
                "NAME": "Seattle Police Headquarters",
                "ADDRESS": "610 5th Ave",
                "ZIPCODE": "98104",
                "PHONE": "(206) 625-5011",
                "WEBSITE": "http://www.seattle.gov/police/about-us/police-locations/police-hq"
            },
            "geometry": {
                "type": "Point",
                "coordinates": [
                    -122.32918857555136,
                    47.60420565608342
                ]
            }
        },
        {
            "type": "Feature",
            "properties": {
                "NAME": "UW Police Department",
                "ADDRESS": "3939 15th Ave NE",
                "ZIPCODE": "98105",
                "PHONE": "(206) 543-0507",
                "WEBSITE": "http://police.uw.edu/"
            },
            "geometry": {
                "type": "Point",
                "coordinates": [
                    -122.31645058128701,
                    47.65233522688041
                ]
            }
        }
    ]
}